[
	{
		"lat": -80,
		"long": -80,
		"name": "GentleWhale"
	},
	{
		"lat": 40,
		"long": -40,
		"name": "GentleWhale"
	},
	{
		"lat": 11.789514541625977,
		"long": -48.389892578125,
		"name": "Eber"
	},
	{
		"lat": 12.900506973266602,
		"long": -49.278682708740234,
		"name": "Eber"
	},
	{
		"lat": 12.390464782714844,
		"long": -49.490779876708984,
		"name": "Eber"
	},
	{
		"lat": 12.622756958007812,
		"long": -51.27846145629883,
		"name": "Eber"
	},
	{
		"lat": -14.424829483032227,
		"long": -31.211544036865234,
		"name": "Elder Rock Elemental"
	},
	{
		"lat": -40,
		"long": -40,
		"name": "GiantSquid"
	},
	{
		"lat": -71.29875183105469,
		"long": -50.91183853149414,
		"name": "Crystal Scoripion "
	},
	{
		"lat": -68.49030303955078,
		"long": -30.861299514770508,
		"name": "Hydra"
	},
	{
		"lat": -69.39517211914062,
		"long": -29.88465690612793,
		"name": "Hydra"
	},
	{
		"lat": -69.28897094726562,
		"long": -31.081501007080078,
		"name": "Hydra"
	},
	{
		"lat": -67.71774291992188,
		"long": -30.538856506347656,
		"name": "Hydra"
	},
	{
		"lat": 40,
		"long": 40,
		"name": "GiantSquid"
	},
	{
		"lat": -29.25954246520996,
		"long": 28.595558166503906,
		"name": "Ancient Fire Elemental"
	},
	{
		"lat": -49.13954162597656,
		"long": 50.57834243774414,
		"name": "Buwaya"
	},
	{
		"lat": -51.657527923583984,
		"long": 29.034814834594727,
		"name": "Kekeda"
	},
	{
		"lat": -51.83148193359375,
		"long": 28.719728469848633,
		"name": "Kekeda"
	},
	{
		"lat": 80,
		"long": 80,
		"name": "MeanWhale"
	},
	{
		"lat": 28.70696449279785,
		"long": 67.81917572021484,
		"name": "Drake"
	},
	{
		"lat": 27.748334884643555,
		"long": 68.46245574951172,
		"name": "Drake"
	},
	{
		"lat": 27.069250106811523,
		"long": 67.14122772216797,
		"name": "Drake"
	},
	{
		"lat": 27.780223846435547,
		"long": 67.37842559814453,
		"name": "Drake"
	},
	{
		"lat": 49.12004089355469,
		"long": 68.48922729492188,
		"name": "Sentinel"
	},
	{
		"lat": 48.552024841308594,
		"long": 68.48922729492188,
		"name": "Sentinel"
	},
	{
		"lat": 48.552024841308594,
		"long": 68.15567016601562,
		"name": "Sentinel"
	},
	{
		"lat": 49.12004089355469,
		"long": 68.15567016601562,
		"name": "Sentinel"
	},
	{
		"lat": -40,
		"long": 80,
		"name": "MeanWhale"
	},
	{
		"lat": -52.03098678588867,
		"long": 69.8957290649414,
		"name": "Yeti"
	}
]